이름,위도,경도
동문굿모닝힐맘시티4단지,37.0255333,127.1067667
파라곤에듀포레.제일풍경채2차에듀(중),37.0405333,127.02435
서정동주공3단지,37.0605833,127.0577833
서정동주공3단지앞,37.06075,127.0577833
센트럴자이1단지,37.0162167,127.1003167
마두1리,37.10935,127.01825
배다리생태공원서문(중),37.0004667,127.116
윗머드내.평화약국,37.1290167,127.0126167
고덕아너스,37.04485,127.02435
고덕아너스,37.0449833,127.0244167
견산1리,37.1077,127.07245
견산2리,37.1059667,127.07955
진위면사무소,37.0997167,127.0901167
견산1리,37.1076,127.0725667
진위고등학교,37.10845,127.0688167
배다리생태공원서문(중),37.0021167,127.1154167
하북3리,37.1039167,127.057
하북2리,37.1042667,127.0525167
금암1리,37.1041333,127.0419333
서탄119안전센터,37.1062667,127.03705
서탄면사무소,37.1072667,127.0349667
서탄면입구,37.1035833,127.0633333
당현4리,37.07235,127.0327167
당현4리,37.0722,127.0326667
K55정문,37.07925,127.0510333
신장육교사거리,37.07925,127.0557
송탄터미널,37.0792667,127.0581667
제일아파트,37.07975,127.0611167
당현2리.율곡마을,37.0731833,127.0377
고덕아너스(중),37.0467833,127.0218
해창1리입구,37.0456833,127.0120667
지산초록도서관,37.0793167,127.0604667
송탄터미널,37.07905,127.0587
신장육교사거리,37.0791,127.0559833
K55정문,37.0791333,127.05075
공군작전사령부,37.0734,127.0312833
케이씨타운입구,37.0741,127.0268333
장등리,37.0738667,127.0253333
문곡1리,37.0689833,127.01315
금각1리,37.0695167,127.0093833
해창1리입구,37.0456,127.0121167
자란초등학교,37.0034167,127.1019667
자란초등학교,37.00295,127.1003833
유라슈퍼,37.0758167,127.0467667
e편한세상지제역아파트정문,37.01555,127.0893
e편한세상지제역아파트정문,37.0148667,127.0891
은산5리,37.0966333,127.11705
쌍용자동차출고장,37.03185,127.0902833
마산3리,37.0921,127.0930667
동아빌라,37.07285,127.0453833
은산5리입구,37.0947,127.1085333
은산4리,37.0902167,127.1168
은산3리,37.0881667,127.12
산대초교,37.0861333,127.1229
남산노인정,37.0840333,127.0495333
은산4리,37.0901333,127.1167667
동아빌라,37.0727667,127.0452833
유성사,36.9579167,127.0758333
마산1리,37.0875,127.0858667
월곡동마을입구,37.0262833,127.1350667
월곡동마을입구,37.0263,127.13495
경기평택교육도서관,37.0711167,127.0633167
서정더샵아파트,37.07105,127.0605
진위3산업단지입구,37.0869667,127.0978667
현대상가,37.0704667,127.0572833
현대상가,37.0708167,127.0576
서정더샵아파트,37.0712833,127.0610167
경기평택교육도서관,37.0713667,127.0634167
송탄문예회관,37.0654167,127.0657
평생학습센터,37.0642833,127.0671167
이충초등학교.부영아파트2.3단지,37.0622167,127.06675
진위3산업단지,37.0850333,127.1004333
이충초등학교.부영아파트1단지,37.0624833,127.0664667
평생학습센터,37.06385,127.0665333
진위3산업단지동측,37.0858167,127.1044833
진위3산업단지북측,37.08895,127.1021833
송탄문예회관,37.0651833,127.06585
진위역,37.1091667,127.06365
서탄입구,37.1041167,127.0638333
진위면신리,37.0972167,127.0641
송탄소방서,37.0888333,127.0630167
독곡삼익2차아파트,37.0852833,127.0625
동부아파트,37.0816667,127.0624833
미주아파트.서울제일병원,37.0787667,127.0635167
지산우성아파트,37.0752833,127.06555
라온중고등학교,37.06955,127.0645333
송탄출장소,37.0672667,127.0642667
평택고용센터,37.0533,127.06015
우미아파트,37.0516667,127.0600833
경동보일러.범양아파트,37.0094833,127.07595
평택공단,37.00815,127.0785
드림테크산단,37.0597,126.96785
추팔1리마을회관,36.9647167,127.07755
이곡마을3단지,37.0045,127.0991333
평택공단,37.00795,127.0783167
경동보일러,37.0093667,127.0757167
이마트,37.01925,127.0747
송탄관광특구,37.0832,127.0493833
평택여고,37.0130333,127.0911
e편한세상지제역아파트,37.0165167,127.0880667
신리,37.007,127.0072333
힐스테이트지제역퍼스티움,37.0167667,127.0847667
이마트,37.0191333,127.07495
세교농협사거리,37.0036667,127.0796833
세교동부영아파트후문,37.0035667,127.08395
우성아파트,37.0017333,127.0817333
우성아파트,37.0018833,127.0817
세교동태영아파트후문,37.00375,127.08395
세교근린공원,37.0026833,127.0843167
세교동부영2차아파트,37.004,127.0825667
세교동태영아파트,37.0042,127.0825333
세교근린공원,37.0028667,127.0843
개나리아파트,37.0005167,127.0814
평택중학교,36.9993,127.09395
복창육교,37.07165,127.05355
소사벌리더스하임,37.0053667,127.1076667
죽백동입구,37.0147,127.1136833
수촌,37.0179833,127.1171833
청룡교차로,37.02765,127.1230667
청룡동입구,37.01925,127.1183667
농협주유소,37.0172333,127.1167667
죽백동입구,37.0145333,127.11375
우미린센트럴파크.호반베르디움(중),37.0045667,127.1128333
용죽초등학교,36.9949,127.1231167
비전롯데캐슬아파트.비전초교,36.9996167,127.0944
자란로타리,36.9971,127.0908333
개나리아파트,37.0005833,127.0811333
세교동행정복지센터,37.0001667,127.08345
세교동부영아파트,37.00175,127.0861833
법원검찰청입구,37.0116667,127.0920667
청아초교,37.0238,126.9155
평택여고.세교중,37.0129,127.0921167
모산근린공원,37.0162667,127.0936
동삭동대우이안아파트,37.0192667,127.09595
삼익사이버아파트,37.0208,127.0969167
쌍용자동차앞,37.0257,127.09965
신촌지구,37.027,127.1090833
동광아파트,37.0313667,127.1005667
동광아파트,37.0312667,127.1008167
쌍용자동차앞,37.0256667,127.0998667
동삭동현대아파트,37.0193333,127.0963667
모산근린공원,37.0159167,127.0937
평택여고.세교중,37.0128333,127.0924167
세교동부영아파트,37.0015167,127.0864833
유천3리,36.9733333,127.1058167
유천3리,36.9729833,127.10595
평택역.AKPLAZA(제1승강장),36.99175,127.0866167
통복시장,36.9955667,127.0829667
서민금융지원센터,36.9988833,127.0797
중앙초교앞,37.0006833,127.0778333
은실,37.0027,127.07465
모산초등학교,37.0206,127.08895
평택성모병원.장미타운,37.0079667,127.0726333
세교삼거리.K2볼링장,37.0101833,127.07255
복창육교,37.0715333,127.0537333
지식산업센터,37.0435833,127.0561667
동국특수유리,37.0501667,127.0842
서정리역(중),37.0570833,127.05065
서정지하차도,37.06705,127.05315
경기종합가구유통,37.0407833,127.0897333
늘푸른요양원,37.0426,127.0932833
내리,37.0521667,127.1109167
K6정문.캠프험프리,36.9580667,127.0445167
법원검찰청입구,37.0110667,127.0922833
쌍용자동차후문,37.0331167,127.0937667
쌍용자동차후문,37.0333333,127.0936167
평택지제역,37.01925,127.06925
중흥S클래스.호반베르디움,37.0075667,127.1118333
호반베르디움.중흥S클래스,37.00735,127.1119833
기남방송사거리입구,37.0213667,127.1195333
기남방송사거리,37.0225333,127.11995
청룡교차로,37.027,127.1224833
청룡동입구,37.0195333,127.11825
자란로타리,36.9975833,127.09185
e편한세상지제역아파트,37.01675,127.0887167
쌍용자동차출고장,37.0320333,127.0900667
고잔2리,37.0521,126.90945
제기리.구주제약,37.1300667,127.0180167
덕절1리,37.1333,127.0269667
도투락입구,37.1327333,127.0251833
월곡동마을회관,37.0232667,127.1391833
평택오썸플렉스,37.0272,127.0194
신흥마을,37.0009833,127.1505667
중앙초교정문앞,37.0010667,127.0787167
중앙초교정문앞,37.00105,127.0784667
굿모닝병원.sk아파트,36.9907167,127.1225
sk아파트.굿모닝병원,36.9896833,127.11975
고덕파라곤(중),37.0550167,127.0466
센트럴자이1단지(중),37.01615,127.0980167
평택시외버스터미널(시내),36.9901333,127.08785
회화리,37.096,127.0265333
새터,37.0014167,127.0620167
도곡삼거리,36.9948,126.8495
원정변전소사거리,36.993,126.8398167
해군아파트,36.9938833,126.8325333
해군기지,36.9944333,126.83455
안중출장소,36.9887167,126.9213167
고덕금호어울림,37.0334333,127.0235333
안중시장입구.안중농협,36.9887167,126.9293333
베스트빌리지,36.97185,127.04085
인광4리,36.97425,126.9226333
장수리입구,36.9506,126.91275
권관3리,36.9239333,126.91325
구종점,36.91455,126.9098167
평택호관광단지,36.9152667,126.90785
우경아파트,36.9183333,126.9080333
에덴약국.구터미널,36.9882,126.9272833
안중고교,36.98765,126.9234
만호3리,36.9644833,126.8588833
한라아파트,36.9628833,126.8511167
만호5리,36.9626167,126.84905
평택지방해양수산청,36.9619833,126.8455167
현대평화주유소,36.9463667,126.913
SR아파트,36.9606333,126.8561333
안중구터미널,36.98885,126.9313333
SK가스,37.0067833,126.8052667
원정변전소사거리,36.9928167,126.8398
쌍용주택,36.9996667,126.8385333
신창아파트,36.9807,126.9372333
송담리,36.9790667,126.9393833
송담리,36.979,126.9395167
직산말,36.9757833,126.9411
직산말,36.9758167,126.9412167
삼정리입구,36.9733,126.9428833
현대모비스,36.9798667,126.8464167
소당마을,36.9675333,126.9455833
소당마을,36.96735,126.9460833
만호4리입구,36.96515,126.8575333
만호4리입구,36.9652667,126.85745
포승삼부르네상스2단지,36.9914833,126.8459167
포승삼부르네상스2단지,36.9917167,126.84575
동령마을,37.0613,127.0733167
도대2리,36.9606333,126.90325
도대3리,36.9651333,126.9042833
도대1리,36.96935,126.9025
비전1동행정복지센터.반도유보라2단지,37.0105333,127.1124333
홍원3지구,37.0108333,126.8666667
홍원3지구,37.0107833,126.8667833
경림건설,37.0033167,126.8752333
경림건설,37.0033833,126.87525
석정5리(새원입구),37.0015167,126.88205
석정5리(새원입구),37.0022,126.8811167
석정5리(회관),37.00245,126.8800333
석정5리(현석),36.99885,126.88095
석정5리(현석),36.9987667,126.8811333
원석정,36.9938,126.88145
원석정,36.99385,126.8815167
석정1리(감기),36.9918833,126.8808333
석정1리(감기),36.99185,126.8809
석정2리(한유지부락입구),36.9877167,126.8798333
석정2리(한유지부락입구),36.9876667,126.8799167
석정2리마을회관,36.9861333,126.8793
석정2리.마을회관,36.9850833,126.8788333
방축리.국제병원,37.01605,127.049
국민은행,37.0183167,126.9153333
뉴욕치과,36.9881,126.8452167
서정지하차도,37.0669667,127.0533167
롯데캐슬아파트,37.0598667,127.0587667
현대주유소,36.9861,126.8602167
학현1리,37.0006667,126.9297333
학현1리,37.0007167,126.9295833
덕우리,37.0110833,126.9265333
호반써밋에듀.제일풍경채3차센텀,37.0381,127.03055
부영1차후문,37.0163,126.9160333
동령마을,37.06135,127.0733833
부영1차후문,37.0162,126.9158833
부영2차정문,37.0185,126.9130333
옥길3리,37.02785,126.9121
옥길2리(가사),37.03195,126.91515
해창5리,37.0210667,127.0215667
고덕초등학교,37.0391,127.0174833
고덕초등학교,37.0391833,127.0172167
신풍제지,37.0301333,127.01915
신풍제지,37.0296,127.0188167
고덕파라곤(중),37.0551,127.0475167
국립농산물품질관리원,37.0586167,127.04945
지제마을입구,37.0244833,127.0609
대반2리,36.9889333,126.9490167
대반2리,36.9887,126.9491833
대반3리,36.9848167,126.9501
오성산업단지,37.02895,126.9464833
대반4리,36.9802333,126.9509
대반5리,36.9802833,126.95495
원길음,36.9861333,126.96465
원길음,36.98665,126.9651667
행정복지타운,37.0444167,127.0439167
길음1리,36.9875833,126.9704667
당거사거리,36.98845,126.9744
청아초교,37.0236167,126.9154667
창내2리,36.9823167,127.0213833
창내2리,36.9823833,127.0220833
이주단지앞,37.0279833,127.1060167
K-6구정문,36.9589833,127.0428833
창신초교,37.0045,127.0074333
상서재서초근린공원,37.0187333,127.106
신3리,37.0011167,127.0168167
신장1동행정복지센터,37.0829,127.0547833
중대마을,37.0011,127.0194333
원창부락,36.9967333,127.0216667
고덕신도시입구,37.0646333,127.0515167
신촌,36.9894167,127.0180667
제일풍경채,37.0534667,127.0434667
창내2리,36.9894,127.0216167
당거3리(길마원),36.9895833,127.00755
백봉1리,37.0307833,126.9892833
백봉2리,37.0341167,126.9814833
양교1리,37.0253,126.9763333
토진3리.국길,37.0312167,126.9655167
토진3리.가재울,37.0337167,126.9606333
양교5리,37.0241167,126.9631167
양교5리,37.0241,126.9632333
진위3산업단지북측,37.0888667,127.1019333
롯데시네마,37.0668,127.0608667
롯데시네마,37.0671167,127.0605
원평노을지하차도,36.9940333,127.0786167
원평노을지하차도,36.9944333,127.0793333
고덕LH17단지정문,37.03695,127.0447333
진위3산업단지동측,37.0863333,127.1047167
대사1리,36.9445833,127.0629667
노양2리,36.9435667,127.0041667
노양1리입구,36.9357833,126.9963167
노양리마을회관,36.9352833,126.9910167
노양리낚시터,36.9370167,126.9909333
본정사거리,36.9490167,127.0096833
진위3산업단지,37.0844,127.1016667
본정리,36.9473667,127.0056833
큰농고지,36.9419833,127.0379167
두정3리,36.94275,127.0317167
두정2리,36.9441,127.0256833
드림테크산단,37.0599167,126.9673667
국립농산물품질관리원,37.0588833,127.0484333
함정2리,36.9547167,127.01155
함정1리,36.9524833,127.0144
두정2리,36.9442667,127.0254833
두정3리,36.9428333,127.0317
큰농고지,36.9421833,127.0379167
두정1리,36.9419167,127.0401833
계양입구,36.9406333,127.0474333
팽성초등학교(좌회전전용),36.9514333,127.0528833
농성,36.9632667,127.0467
안정3리,36.9631167,127.0443167
국제석유,36.96255,127.04355
K-6구정문,36.9591167,127.0429333
송화3리,36.9548667,127.0493833
K6정문.캠프험프리(시외버스),36.9578667,127.04535
안정6리,36.9613,127.0499833
안정6리,36.95885,127.0467
안정5리,36.95875,127.04615
안정6리,36.9608833,127.04905
초원빌라,36.9622667,127.0508167
대원아파트.팽성읍사무소,36.9645,127.0614833
부용초등학교,36.9645667,127.0590833
향교아파트,36.9642833,127.0558333
팽성국제교류센터.시립팽성도서관,36.9631833,127.0532167
우미린센트럴파크.호반베르디움(중),37.0051833,127.1120667
우미린센트럴파크,37.0052167,127.10785
이곡마을3단지,37.0043667,127.0997
시립팽성도서관.팽성국제교류센터,36.9632833,127.05285
향교아파트,36.9644,127.0558833
부용초교,36.96465,127.0587667
대원아파트,36.96465,127.0612167
팽성농협.팽성읍사무소,36.9644667,127.0631833
성두아파트,36.9728333,127.0845667
노와3리,36.9586833,127.0963667
노와2리,36.9514167,127.0948167
노와1리,36.9588,127.0899667
평궁3리,36.9686833,127.0941167
평궁1리회관,36.9716,127.08675
성두아파트,36.9727833,127.0843667
두1리,36.97895,127.0650167
신호2리,36.9799667,127.0579667
신호1리,36.9788333,127.0529833
근내리,36.9801667,127.0491
근내2리,36.98005,127.046
원정삼거리,36.9728833,127.0407667
동창리입구,36.9732333,127.0358
내리회관,36.9736167,127.0274
원정리입구,36.9747167,127.0430333
원정리,36.97805,127.0438333
석봉리입구,36.9803167,127.0471
신호1리,36.9790333,127.0529833
신호2리,36.9801833,127.0578667
신궁2리,36.9805,127.0752
배꽃마을,37.0024667,127.1140833
소사벌중심상가.CGV평택소사점,37.0010833,127.1117833
민세안재홍선생생가,37.0577333,127.0182333
두릉리.계루지,37.0567667,127.0148167
문곡4리,37.0561667,127.0113833
문곡3리입구,37.0553167,127.00785
평택지제역,37.0183833,127.0717
모곡동,37.0299167,127.0706
고덕아이파크,37.0339667,127.0701833
송탄공단입구,37.0383167,127.0693833
광동제약.홈플러스,37.0432833,127.06255
효명중고등학교,37.0495167,127.0569
한양아파트,37.0516333,127.0559
이충동현대아파트,37.0536833,127.05525
중앙동주민센터.중앙동우체국,37.0561333,127.0555667
서정리시장,37.05825,127.0552333
중앙동우체국,37.0559833,127.05575
중앙동주민센터,37.0549333,127.0555167
이충동현대아파트,37.0529167,127.0556833
효명중고등학교,37.0495667,127.0570167
광동제약.홈플러스,37.0432833,127.0630833
송탄공단입구,37.0383167,127.06975
고덕아이파크,37.03425,127.0704667
모곡동,37.0298333,127.07095
평택지제역,37.0194833,127.0719833
장미타운,37.0067667,127.0725333
은실,37.0028333,127.0748333
중앙초교후문앞,37.0009167,127.0778833
서민금융지원센터,36.9995667,127.0794
통복시장로터리,36.9952,127.0836333
평택역.AKPLAZA,36.9926833,127.0860167
평택역.AKPLAZA,36.9924333,127.0867333
평택마이스터고사거리,36.9969833,127.0880833
평택교육지원청,36.9994833,127.0887167
통복동신명보람아파트,37.0020167,127.0899833
통복동신명보람아파트,37.0017333,127.0899167
낙촌,37.00015,127.0891667
평택교육지원청,36.9991833,127.0888333
평택마이스터고사거리,36.9971167,127.0883
평택역.AKPLAZA,36.9927833,127.0870167
박애병원,36.9925333,127.0893667
평택터미널,36.9908333,127.0885833
평택터미널,36.9909833,127.08845
박애병원,36.99225,127.0893667
평택경찰서사거리,36.9934667,127.0889667
평택경찰서사거리,36.9937167,127.0897833
원평동주민센터.평택초교,36.9881333,127.0802833
삼성아파트,36.99155,127.07855
화촌.평택역SKVIEW,36.9939167,127.0747333
고잔,36.9969,127.0691833
새터,37.0013167,127.0619333
삽다리마을,37.0028,127.0595
삽다리마을,37.0028333,127.0597833
고잔,36.9970667,127.0691
화촌.평택역SKVIEW,36.9937667,127.0757333
삼성아파트,36.9918167,127.0786167
원평동주민센터.평택초교,36.9883333,127.0805333
군문주공아파트,36.98685,127.0807833
객사리,36.9646833,127.0658
청담중학교,36.9636167,127.06205
우미이노스빌아파트,36.9602,127.0587
팽성초교입구,36.95205,127.0530667
대사리입구,36.94455,127.05305
우미이노스빌아파트,36.9602667,127.0584833
송화주공아파트,36.9618833,127.0585333
객사리,36.9648,127.06585
추팔공단입구,36.9633167,127.07005
추팔공단슈퍼,36.9609667,127.0736167
추팔공단,36.9541167,127.0794333
추팔공단,36.95395,127.07925
추팔공단슈퍼,36.9603167,127.0735167
자비사앞,36.9648833,127.0675833
공군아파트,36.9677333,127.0673667
팽성미곡종합처리장,36.9704667,127.0703833
평궁리,36.9762833,127.0767
신궁리,36.9813167,127.0787167
신궁리,36.9812,127.07895
평궁리,36.9761833,127.0769667
팽성미곡종합처리장,36.9702,127.0703667
공군아파트,36.9679,127.0676
평택보건소앞,36.9905,127.1110333
시청서문앞,36.9919333,127.1114833
경남아너스빌아파트.명진비전파크,36.9959833,127.1097833
광덕초교,36.9432167,126.9436333
대안1리,36.9390167,126.9424167
대안1리,36.939,126.9424833
사랑말,36.9361,126.9400667
사랑말,36.9361,126.9401
구진종점,36.9318667,126.9419333
평택역2번출구,36.9904667,127.0836667
평택역2번출구,36.9906333,127.0837833
대안2리,36.93955,126.9481167
대안2리,36.9396167,126.9482
사랑현,36.9384667,126.9507667
사랑현,36.9384667,126.9508833
신왕1리,36.9367333,126.9661667
광덕(종점),36.9374833,126.9683833
덕목보건진료소,36.9522833,126.9512333
덕목보건진료소,36.9522667,126.9517167
백석입구,36.9628333,126.94985
백석입구,36.9628,126.9499667
고덕LH12단지,37.03555,127.0265
덕목3리,36.951,126.9556167
덕목3리,36.9511333,126.9556667
덕목5리,36.9509,126.9606167
덕목5리,36.9509667,126.9607667
심복사입구,36.9467333,126.9643833
심복사입구,36.9467833,126.9645167
신왕1리(아주),36.9357,126.9625
정림입구,37.13625,127.0356333
고잔4리,37.05545,126.8923833
광덕종점,36.9373833,126.96835
현덕초등학교.이안평택안중역아파트,36.9650833,126.9209667
현덕초등학교.이안평택안중역아파트,36.965,126.9209
대광로제비앙(중),37.0350333,127.0335
노랑바위,36.9184833,126.91725
삼정리입구,36.9732833,126.9430167
지제초등학교,37.0220167,127.0759
가사초교앞,36.9378333,126.9182667
기산리입구,36.9294333,126.92665
기산리입구,36.92945,126.9267333
도대리,36.946,126.9093833
장수리,36.94595,126.9093833
장수리마을회관,36.9397833,126.9013833
반도아파트,36.9796,126.8803833
방림1리,36.9756833,126.8843833
방림1리,36.9757,126.8844333
방림2리,36.9722167,126.8844
방림2리,36.9720833,126.8845167
방림3리,36.9689667,126.88585
방림4리입구,36.96535,126.8887167
방림4리,36.9653167,126.8885167
방축2리,36.9586667,126.8876167
방축2리입구,36.9585667,126.8875167
신영삼거리,36.9559,126.8860167
신영삼거리,36.9556667,126.8860667
신영2리입구,36.95025,126.8885667
아랫머드내.신동아자동차학원,37.1264167,127.0069333
신영2리마을회관,36.9471667,126.89135
항만주유소,36.9448833,126.8751
아프리카앞,36.9485333,126.87195
길송횟집앞,36.949,126.87385
신영3리,36.9529667,126.88765
희곡2.3리입구,36.9733667,126.8729833
성해2리,36.9925333,126.9040833
아랫머드내.신동아자동차학원,37.1266,127.0071
석정6리(용소),37.0017833,126.8967
석정6리,37.0038667,126.8971
석정5리,37.0061833,126.8925833
홍원1리,37.0079667,126.8928667
홍원초교,37.0118167,126.8877833
마장,37.0141667,126.8796167
홍원4지구(종점),37.0217333,126.8751833
홍원교회,37.0157167,126.8762833
홍원교회,37.01565,126.8762667
여염근린공원,37.0281167,127.0542833
고덕LH17단지,37.0364667,127.0467833
홍원3리,37.01665,126.86785
홍원5리,37.01265,126.8672167
홍원2지구,37.01255,126.8651
홍원2지구,37.0125,126.8651
홍원1지구(종점),37.0129833,126.8559667
양교4리,37.0224167,126.9677
양교4리,37.0224,126.9675167
용죽근린공원,36.9960667,127.1248
양교4리,37.0214667,126.9700667
죽1리,37.0124333,126.9695833
죽4리,37.0093333,126.9670833
숙성2리,37.0019667,126.9784333
숙성3리,36.9953833,126.9761167
길음1리입구,36.9911333,126.9687
길음1리,36.9935833,126.9653833
양교3리,37.0201833,126.9751667
대안3리,36.9339833,126.9552
토진3리.국길,37.0311667,126.9655333
서희스타힐스,37.0854833,127.0554167
고덕수변공원,37.0463333,127.04695
베스트빌리지,36.9716667,127.0406833
신동아파밀리에.자연앤자이,37.04985,127.0469333
구룡마을입구,37.0048333,127.13825
서희스타힐스,37.0851833,127.0555667
삼성전자평택캠퍼스,37.0358167,127.0523
서정리역(마을),37.057,127.05405
울성리,37.0115333,127.0608167
울성리저수지,37.0166,127.0604833
여염근린공원,37.0278833,127.0539
지제교차로,37.0202167,127.05815
원정삼거리,36.9725333,127.0409167
목천고가입구,37.0871333,127.05535
마산3리,37.0919333,127.0931
지산모터스,37.0763833,127.0853167
은산5리,37.09665,127.1168333
하북차고지,37.1035167,127.0643167
장등2리,37.0728167,127.0220833
k-55후문사거리,37.0749667,127.0432
청룡동,37.0219333,127.1256
종덕초등학교,37.0533333,127.04695
고덕수변공원,37.0467833,127.0471667
오리곡,37.0871,127.0781667
하북삼거리,37.1094,127.0643167
은산리,37.0786667,127.12215
은산1리,37.0787167,127.1222333
진위고등학교,37.1085667,127.0687167
고덕동행정복지센터,37.0427833,127.0504833
센트럴자이1단지,37.0164167,127.1000833
대안3리,36.9341,126.9552333
광덕초교,36.94315,126.9435333
신왕1리(마주),36.9347167,126.9623333
당거2리,36.99285,126.9819833
당거2리,36.99305,126.9822333
수정리,36.9962333,126.99135
교포3리,36.9927333,126.9975333
유엔빌리지,36.9662833,127.04145
유엔빌리지,36.9660833,127.0416167
한보연립,36.96405,127.0414167
창내2리,36.9894333,127.0216667
기산리마을회관,36.9308667,126.9288
방축1리,36.9521167,126.9065167
안정3리사거리,36.9613,127.0418833
창내리입구,37.0145,127.0052
고덕119안전센터,37.04535,127.0220667
고덕LH2단지,37.0585833,127.0445
고덕르플로랑아파트,37.0570833,127.0439167
지제마을입구,37.02425,127.0618167
고덕119안전센터,37.04535,127.02165
평택공설운동장,36.9865167,127.1026833
청담고등학교,36.9640333,127.0627167
외국인임대주택단지,36.9425833,126.9953667
노양1리,36.9380667,126.9991
한성아파트사거리,37.0010833,127.0981833
동창리입구,36.97345,127.0360167
본정1리마을회관,36.9461833,127.0065333
배다리초중통합학교,37.004,127.1212
배다리초중통합학교,37.0042333,127.1213167
본정삼거리,36.9496333,127.01455
양교3리,37.0203,126.9749
한라파인힐,36.9969833,126.8986333
자오,37.0182667,126.8694167
안중재래시장입구,36.9881833,126.9274333
모아아파트,36.9907833,126.8491167
해군기지,36.99455,126.83465
지산모터스,37.0762,127.08525
객사리입구,36.9645333,127.0676
노와4리,36.95095,127.0803167
포승중앙교회입구,36.99385,126.9009667
한라파인힐,36.9969667,126.89855
새말입구,37.02825,127.1013333
신촌,37.0256333,127.1115833
토진1리,37.0350167,126.95885
청북중학교,37.0414833,126.9464667
후사1리,37.0244167,126.9431
서재자이아파트.평택법원(중),37.0124,127.1024
청북중학교,37.0413333,126.9463667
효성1단지후문,36.9891333,127.1259
세교중학교,37.0137167,127.0897167
고덕센트레빌(중),37.0632333,127.0506833
고덕산업단지입구(중),37.0403833,127.0471167
노와2리입구,36.9483167,127.0855667
도곡초교,36.9891667,126.8471667
안중초교앞,36.98865,126.92765
원정리,37.0063667,126.8009333
원정8리,37.00585,126.8027333
안중시장입구.안중농협,36.9888,126.9292833
동한당약국,36.9875667,126.9247
원정리,37.0064,126.8011167
이곡마을6단지,37.0075333,127.1066
소사벌리더스하임,37.0056,127.1050167
명법사.남부복지타운,36.998,127.1017333
석정2리(신기),36.9828,126.8806667
세교지구,37.0059333,127.0895
제일풍경채3차(중),37.0370333,127.0281833
쌍용주택,36.9998,126.8385
원정변전소사거리,36.9930167,126.8394333
도곡초교,36.989,126.8472333
비전고등학교,37.0007833,127.10435
와룡리입구,36.95565,127.0958333
리더스하임후문,37.0045333,127.1045667
해군아파트,36.9939167,126.8324333
유천2리,36.9768,127.1118
유천2리,36.97655,127.1112
유천1리,36.9769333,127.1152333
노와4리,36.9509833,127.08035
비전중학교,37.0073333,127.1011833
비전중학교,37.0074167,127.1014
코오롱하늘채아파트남문,37.0578667,127.0803333
드림테크산단입구,37.0543833,126.9828833
미주오토텔앞,36.9870833,126.8431
제일장례식장,37.0898,127.0672833
신대2리,36.9449833,126.999
신안인스빌앞,37.0567667,127.04345
하북차고지,37.1033667,127.0643167
모아아파트,36.9907833,126.8493333
삼덕초등학교,37.0392333,126.9115167
만호리입구,36.963,126.8565
한라아파트,36.96275,126.85095
평택지방해양수산청,36.9619833,126.8458667
해창교,37.0189833,127.0220833
삼부르네상스아파트,36.9896667,126.8523
만호5리,36.96255,126.849
고덕아너스(중),37.04625,127.0219
월곡동해돋이어린이집,37.0230667,127.1314167
고덕어울림스퀘어정문,37.0448333,127.04515
세희아트빌라,36.9640167,127.0416333
합정초등학교,36.9879333,127.09865
삼부르네상스아파트,36.98975,126.85255
동우화인켐.삼성도장,36.9831,126.8456333
후사1리,37.0233833,126.9367833
동우화인캠서문앞,36.9799167,126.8396167
기업은행앞,36.9748333,126.8431667
지식산업센터,37.0433667,127.0565167
서재초교,37.0173833,127.1045
서재초교,37.0175,127.1043333
신평동주민센터,36.98925,127.0935833
용이동차고지,37.0035,127.1393333
K2볼링장,37.0100167,127.0729167
칠괴동우림아파트,37.0257833,127.0835667
합정초교앞,36.9882833,127.0986
힐스테이트지제역,37.0217,127.0813
창내3리,36.9940833,127.0112333
동아동백아파트후문,36.9989333,127.10865
포승모아아파트,36.9865667,126.8485333
대명금속,36.97005,126.8547667
유성티엔에스,36.9662667,126.8493333
평택항만물류창고,36.96545,126.84845
평택항.국제여객터미널,36.9588333,126.8468167
지제역더샵센트럴시티,37.02095,127.0741333
지제역더샵센트럴시티,37.0215667,127.0744167
영신지구,37.02145,127.0853
동우화인켐.삼성도장,36.9829167,126.84595
미서엔에이티,36.9864333,126.84895
기남방송,37.00605,127.1357833
안중오거리,36.9884167,126.93205
안중읍행정복지센터.경기물류고등학교,36.9854667,126.9303167
삼익아파트앞,36.9824333,126.9283667
동신2차아파트,36.9793333,126.9260333
동신3차아파트,36.9789667,126.9237833
현화고교사거리,36.9797333,126.9214167
기남방송앞,37.0061333,127.1358
죽백동차고지,37.0097667,127.1356833
죽백동차고지,37.0096667,127.1357
연화동입구,36.9557,126.9638
덕목5리,36.9535167,126.9711833
행정복지타운,37.04565,127.0434167
안정1리길마재입구,36.9594667,127.0471167
평택센트럴자이3단지,37.0196167,127.101
평택센트럴자이4단지,37.01955,127.1012667
칠괴공원,37.0324833,127.0871
칠괴공원,37.0323833,127.08695
광동제약,37.0356,127.0831333
평택센트럴자이5단지,37.0208667,127.1031667
궁2리,37.0182,127.0298
고덕하늘채시그니처,37.0195833,127.0348833
궁2리,37.0182667,127.0297167
SK아파트,36.9891,127.1222
SK아파트,36.9885333,127.1220333
죽백동,37.0157667,127.1328833
구룡마을입구,37.0047833,127.1381667
평택센트럴자이5단지,37.02035,127.10525
평택센트럴자이3단지,37.0211333,127.1032667
안정3리사거리,36.9614167,127.0417833
평택고속터미널,36.99115,127.0870333
고덕산업단지입구(중),37.0407167,127.0466167
평택항.국제여객터미널,36.9584833,126.8467667
수월암리공단,37.1185833,127.0248
궁2리입구,37.0162667,127.0295333
센트럴해링턴플레이스후문,36.99975,127.1063333
동신2차아파트,36.9790667,126.9261333
수정리,36.9961667,126.9906
교포3리,36.99225,126.9983167
당거3리,36.9881333,127.00485
당거3리,36.9880667,127.0053667
와룡리입구,36.9556167,127.0959167
용이2차푸르지오.반도유보라,36.9982167,127.1447
스타필드.용이2차푸르지오.반도유보라,36.9982667,127.14505
서정리역(중),37.0568833,127.0508167
권관리,36.9314667,126.9153167
대반3리,36.9847833,126.9499167
대반2리,36.9923333,126.9480333
대반1리,36.9920333,126.9482
해군2함대정문,36.993,126.8285833
황산2리,36.9588,126.9307
황산3리.덕목1리,36.9543,126.9366833
합정대로,36.9865667,127.10175
고덕파라곤,37.05275,127.0439167
신장육교,37.0789167,127.0538667
합정대로,36.9874833,127.1004667
성공회앞,36.9887,126.9246333
뉴욕치과,36.9882167,126.8451167
현덕면사무소,36.9673167,126.9201333
에버그린,37.0698333,127.0172333
오성산업단지입구,37.0241,126.9468167
고덕지구,37.03985,127.0411167
월곡동해돋이어린이집,37.0228667,127.1313667
함박산,37.03885,127.03465
고덕LH17단지(중),37.03685,127.0469833
부락산분수공원,37.0646,127.0678833
부락산분수공원,37.0648167,127.0679
이충레포츠공원,37.0647833,127.0691667
이충레포츠공원,37.0645833,127.0693333
도일사거리,37.0439333,127.0992
도일사거리,37.0429333,127.0991833
평택종합물류센터,37.03915,127.0981333
평택종합물류센터,37.0392833,127.0978333
비전1동행정복지센터.반도유보라2단지,37.0105833,127.1120333
원정리.진등마을,36.9684833,127.0411833
원정리.진등마을,36.9693833,127.04095
석정교회,37.0054167,126.89605
석정교회,37.0053833,126.8958667
명법사.남부복지타운,36.99775,127.1015333
신평로,36.97945,127.0973833
이충주택단지,37.0566333,127.063
부영아파트2단지,37.0613,127.06795
이편한세상아파트,37.0611333,127.0680333
팔각정입구,36.9162833,126.9129333
안중읍행정복지센터.경기물류고등학교,36.9861167,126.9309333
황산3리.덕목1리,36.9542333,126.9364333
황산2리,36.9586833,126.93045
뜨레휴이곡마을7단지후문,37.01005,127.1049
센트럴자이1단지(중),37.0166167,127.0972667
고잔7리마을회관,37.0386667,126.8885167
율북4리.장개마을,37.0663333,126.9830667
고덕센트레빌(중),37.0626333,127.0507833
청북부영3단지,37.0197833,126.9145833
현화고교사거리,36.9795,126.9219
고덕금호어울림,37.0334667,127.0239333
삼익아파트,36.9823167,126.92855
안중오거리,36.9883667,126.9323167
안중오거리,36.9901167,126.9326833
한솔마트,36.9901833,126.8416
한솔마트,36.9895333,126.8410167
원옥길,37.0226667,126.9113667
원옥길,37.0224,126.9109667
청북고등학교.한양수자인,37.0218833,126.92105
청북고등학교.한양수자인,37.022,126.9208167
평택역.AKPLAZA(제2승강장),36.9916667,127.0865333
고덕초등학교,37.0411833,127.0298333
숙성4리,37.0013,126.9910833
교포3리입구,37.0012333,126.9977
삼성전자(중),37.03995,127.0512167
마을입구,37.0154,126.99745
마을입구,37.0154333,126.9975333
안화리종점,37.0187333,126.99755
여술근린공원,36.9908833,126.84255
안중터미널.안중보건지소,36.97775,126.9231667
안중터미널.안중보건지소,36.9781,126.9232333
현화고교사거리,36.9792,126.9209333
근내리,36.9674667,127.05785
팽성우체국,36.9672833,127.0579667
두2리,36.9696667,127.0651833
레포츠센터,36.96935,127.0646
용이중학교,36.9982167,127.1348167
용이중학교,36.9983833,127.1349333
팽성보건복지센터,36.9587667,127.0597833
팽성보건복지센터,36.9586667,127.0595833
청학빌라,36.9945333,126.93445
성심병원앞,36.9838167,126.9273833
리더스하임후문,37.0043,127.1052333
안중공용터미널,36.9776,126.92355
성공회앞,36.98875,126.9247
근내리,36.9802667,127.0491333
지제교차로,37.0203667,127.0584
덕동사거리,36.9996833,127.1049667
대추리평화마을,36.9464,127.0890167
고덕지구,37.04,127.0409167
행정복지타운(중),37.0463333,127.0437167
추팔1리마을회관,36.9646667,127.07745
두정맨션,36.9451,127.0229667
두정맨션,36.9450167,127.0229167
본정2리입구,36.9461,127.0189
본정2리입구,36.9460167,127.0188333
본정2리.우석빌라,36.9471333,127.0165667
본정2리.우석빌라,36.9471833,127.0163333
송탄소방서,37.0903833,127.0628167
우성아파트,37.0028667,127.0795833
안중공용터미널,36.9776,126.9237833
신장1동행정복지센터,37.0827333,127.0549333
효성1단지후문,36.98925,127.1248167
안중초교,36.9887333,126.92765
평택고용센터,37.0543833,127.0599833
기업지원사무소,37.03895,126.9458333
기업지원사무소,37.0389833,126.9461167
현곡단지,37.0357333,126.94605
현곡단지,37.0358333,126.9463167
호야전자,37.03425,126.9432833
호야전자,37.03405,126.9429
이안아파트,37.0199,126.9106833
이안아파트,37.0199333,126.9108833
부영1차정문,37.0152333,126.9138667
부영1차정문,37.0151167,126.91405
수촌,37.0144667,126.9167333
수촌,37.0144,126.9165333
안중터미널.안중보건지소,36.97735,126.9231
송탄동주민센터,37.0437833,127.09465
우림아파트,37.0392333,127.0862667
용화사,36.9572167,127.0572333
용화사,36.95715,127.0574333
고덕어울림스퀘어정문,37.0450167,127.0454167
삼익사이버아파트,37.0206,127.0971167
월곡동마을회관,37.0233,127.1391
송탄역,37.0742833,127.0556
평택장례문화원,36.9817667,127.0925833
세문아파트,36.9881833,127.0861333
군문초등학교,36.98755,127.0864333
새교농협,37.0039833,127.07955
세교도서관.세교동성당,37.0062833,127.07835
세교도서관.세교동성당,37.00625,127.0782667
평택장례문화원,36.98175,127.0924667
행정복지타운(중),37.0468167,127.0436333
포승우체국,36.98135,126.8799333
포승우체국,36.9807833,126.8795833
삼계1리,37.04115,126.9136667
삼계2리.옹포,37.0417833,126.9185833
삼계2리.능안,37.0423333,126.92285
청북읍사무소.신포,37.0404,126.9326
군문동,36.9857167,127.0884667
군문동,36.98565,127.0884
경기계량소앞,37.00495,127.0848333
죽3리,37.0080167,126.9528667
죽3리,37.00795,126.95265
청북중학교,37.0396,126.9480333
대동초교,36.9897,127.1309167
길음1리,36.9874667,126.9703
남산5리.행복마을,36.9548333,127.0630333
경기도립노인전문평택병원,37.0521,127.1014333
한경국립대학교정문,37.05165,127.1011833
안중홈플러스,36.9905833,126.9154333
리슈빌레이크파크(중),37.0351333,127.0344833
학현2리,36.9925,126.9144
학현2.3리,36.9927833,126.9141333
부영2차후문,37.0167,126.9120333
부영2차후문,37.0166833,126.9118167
원옥길,37.0242167,126.9132667
원옥길,37.0241833,126.9131167
신장육교,37.0789833,127.0536667
케원마트앞,36.9887,126.9159667
동우화인캠,36.9982167,126.9287333
동우화인캠,36.9983333,126.9286833
서부두,36.9418333,126.8813333
평택항호텔,36.976,126.84235
평택항호텔,36.9761833,126.8417833
현대모비스,36.97915,126.8458167
죽백초교앞,37.0117,127.13525
죽백초교앞,37.0116167,127.1351
대옥아파트입구,36.9626833,127.0489833
목천고가입구,37.0872167,127.0555333
순복음교회,36.9631167,127.0506
기산2리,36.9400667,126.9225
평택호예술관,36.9208833,126.9220833
만호사거리,36.9612,126.8539167
한일아파트,37.1267,127.0704167
금호어울림2단지.e편한세상,36.9993833,127.1294833
자란로타리,36.9974333,127.0919833
유수지앞,36.9847667,126.8571833
유수지앞,36.9845,126.8576667
동우화이캠,36.9829333,126.8404833
평택홍보관,36.9687333,126.8471667
유성티엔에스,36.9660833,126.8494833
동우화이캠,36.9817833,126.8386667
기업은행,36.9747667,126.8427833
평택여자중학교,36.99395,127.1013167
평택여자중학교,36.9931333,127.1013333
한미아파트,36.99595,127.1019333
외기노조C지구.새한아파트,36.99575,127.10215
신세계아파트,36.9979333,127.1034167
LG덕동아파트,36.998,127.10375
센트럴해링턴플레이스제1정문,37.00185,127.10675
센트럴해링턴플레이스제1정문,37.0016833,127.10675
소사벌휴먼시아2단지,37.0052833,127.0962167
소사벌휴먼시아2단지,37.0049667,127.0957833
영화아파트,37.0216167,127.0338667
한국단자,36.9723333,126.8449167
한국단자,36.9720833,126.84465
소사벌휴먼시아1단지,37.0044167,127.0940833
소사벌휴먼시아1단지,37.0043167,127.09415
센트럴해링턴플레이스제2정문,37.00095,127.1089833
센트럴해링턴플레이스제2정문,37.0007333,127.10915
수원지방법원평택지원.수원지방검찰청평택지청,37.0098167,127.0967333
수원지방법원평택지원.수원지방검찰청평택지청,37.00965,127.0969
비전고교사거리,37.0026833,127.1054
비전고교사거리,37.0027667,127.1052
비전중학교입구,37.0081167,127.0996
비전중학교입구,37.0079667,127.0995833
법원검찰청입구,37.0097667,127.0933167
법원검찰청입구,37.0095833,127.0926667
송탄역,37.075,127.0552833
돌모루슈퍼,37.04505,126.9614333
돌모루슈퍼,37.04515,126.96165
어연한산공단앞,37.0479,126.9719333
어연한산공단,37.0502333,126.9756333
어연초등학교,37.0502,126.9782833
어연1리.원어연,37.0505,126.9808667
동청1리,37.0533833,127.0050833
문곡4리,37.0562333,127.01135
e편한세상평택용이.평택남산교회앞,37.0014667,127.1427167
e편한세상평택용이.평택남산교회앞,37.0016833,127.1429
리스빌라앞,37.0053,127.0754167
리스빌라앞,37.00505,127.0749
두정리,36.94325,127.0286
두정리,36.94315,127.02855
코오롱하늘채아파트동문,37.05995,127.0810167
코오롱하늘채아파트서문,37.0577333,127.0773
풍림아이원.이지더원,37.0229,126.9179333
풍림아이원.이지더원,37.0228,126.9183833
우림아파트,37.0391667,127.0864
소사벌초등학교,36.99555,127.1170667
덕목리입구,36.9556833,126.9496333
덕목리입구,36.9556833,126.9495167
신대동,37.0046333,127.0671667
신대동,37.0047167,127.06745
서재자이아파트앞,37.0092333,127.0991667
서재자이아파트앞,37.0092833,127.0987333
죽백동,37.0158667,127.1327333
청담고등학교,36.96305,127.0606167
청담고등학교,36.9633,127.0606833
평궁사거리,36.9752,127.0778333
평궁사거리,36.9750833,127.0777833
비전고등학교,37.0006,127.1046167
두리1리마을회관,36.9772167,127.0663
두리1리마을회관,36.9772167,127.0663833
삼정1리,36.9684833,126.9587167
삼정2리,36.9646333,126.9520333
삼정2리,36.9647,126.95205
신당골,36.9513,127.04475
송화1리,36.9467,127.04195
팽성읍하수처리장,36.9486167,127.0396833
송화2리입구,36.9513,127.0481167
금호어울림.e편한세상후문,37.002,127.12855
현촌교회.현촌3길입구,37.00235,127.1340333
금호어울림.현촌초교,37.0014,127.1323833
금호어울림,37.0005667,127.1314667
현촌초교앞,37.0007833,127.1318833
비전아이파크.비전센터포레,36.9981,127.12645
현촌교회.현촌3길입구,37.0025333,127.1342333
금호어울림.e편한세상후문,37.0012667,127.12655
평택가로수길센트럴돔,36.99865,127.1126833
평택가로수길센트럴돔,36.9983333,127.11285
이충중학교.반지마을1단지,37.05965,127.0695833
한내들퍼스트뷰,37.02405,126.9248667
썬텍인터스트리,36.9797833,126.83355
한국델파이,36.9794,126.8333667
디에프씨푸드,36.9757333,126.8382833
팜스웰바이오,36.9761333,126.8380667
EPS,36.9841667,126.8366333
노루페인트,36.9864,126.8350667
상서재서초근린공원,37.0188667,127.1059
지제초등학교,37.0219,127.07565
노루페인트,36.9860333,126.83485
EPS,36.98395,126.8363333
동우화인켐서문,36.9797333,126.8392833
현촌근린공원,36.9990667,127.1315667
현촌문화공원,36.999,127.13445
현촌문화공원,36.9977,127.13415
현촌근린공원,36.9992333,127.13165
푸르지오아파트후문,36.9991667,127.14075
푸르지오아파트후문,36.9992833,127.1405833
구룡마을입구,36.99875,127.1380667
구룡마을입구,36.9985833,127.1380167
공단농협사거리,36.9846333,126.84425
공단농협사거리,36.9843833,126.8443667
원정1.9리,36.9992167,126.8455667
원정1.9리,36.9992,126.8454833
서재자이아파트.평택법원(중),37.013,127.10185
안중터미널.안중보건지소,36.9778,126.9225833
후사1리마을입구,37.02985,126.9396667
오성산업단지입구,37.02405,126.9471
덕우교차로,37.0081833,126.9196
덕우교차로,37.0082,126.9193833
SR아파트입구,36.9613333,126.8533667
SR아파트후문,36.9624,126.8559833
오성산업단지,37.0284167,126.9467833
신동아파밀리에.자연앤자이,37.0501833,127.0472
후사1리,37.02315,126.9366167
지엔산부인과.센트럴돔,36.9998,127.1111333
지엔산부인과.센트럴돔,36.9992667,127.1116333
e편한세상.금호어울림2단지,36.9996167,127.1295833
평택성모병원,37.0083167,127.0729
이곡마을6단지,37.0062667,127.1024833
이곡마을6단지,37.0061667,127.1029167
서정리역,37.05705,127.0536333
한성엘컴텍,37.1228,127.0792167
이충현대아파트후문,37.0526333,127.0588
고덕,37.0440167,127.0134667
동문굿모닝힐맘시티3단지,37.0256167,127.1023
은산5리입구,37.0945167,127.1091833
은산3리,37.0880833,127.1199833
산대초교,37.0861167,127.1228
은산2리입구,37.0842167,127.1249667
은산2리입구,37.0843,127.1251
유라슈퍼,37.0757333,127.04675
후문상회,37.0761,127.0414333
후문상회,37.0760333,127.04145
개나리아파트.탑건빌리지,37.0762667,127.0396
개나리아파트.탑건빌리지,37.0761667,127.03955
공군작전사령부,37.0734667,127.0311667
금각1리,37.06955,127.0094167
마산1리.오리곡,37.0869833,127.0835333
마산1리.오리곡,37.08705,127.0837
오리곡,37.08705,127.0781
마산3리,37.0916333,127.0911833
신영낚시슈퍼,37.03945,126.9088667
삼계1리.성골,37.0437167,126.90215
하북3리,37.1040167,127.0568833
서탄면사무소,37.1074,127.0349333
마두2리,37.10775,127.0247167
마두2리,37.1077667,127.0251667
하북2리,37.10435,127.0525833
은혜중고등학교,37.0668,127.0781833
견산2리,37.1059833,127.0790833
진위면사무소,37.0996833,127.0900167
고덕중앙교회,37.0414333,127.0156333
고잔3리,37.0463,126.89545
동청2리,37.0492667,127.0051333
장당중학교,37.0517667,127.0622
마두1리,37.1087,127.0165833
가곡4리,37.1180167,127.0741167
갈곶1리,37.1217,127.0740667
우곡마을,37.0782167,127.07995
송북초교,37.0802667,127.06405
마산2리회관앞,37.0869333,127.0909833
아주2차아파트,37.0823333,127.0628667
국제대학,37.0656667,127.0802333
제일하이빌2차.장당우미이노스빌1차,37.0494333,127.06095
광동제약,37.03645,127.08205
문곡1리,37.0690333,127.0131167
해창,37.0452,127.0099833
장당중학교,37.0513833,127.0623833
건지미.KCC스위첸아파트,37.0813333,127.07065
구장터입구,37.08875,127.0521167
남부농협,37.0657333,127.0592167
뉴코아후문(마을),36.9953833,127.1110667
송탄동주민센터,37.0436333,127.0947333
은산2리회관앞,37.0799667,127.1239667
은산2리회관앞,37.0800167,127.1239167
고잔5리.6리,37.04185,126.8921
당현4리,37.0715833,127.0319167
지스마트,37.04145,126.9047167
지스마트,37.0414167,126.90465
공단기숙사,37.0475333,126.9709667
공단기숙사,37.0476167,126.9711333
토진2리,37.0421,126.9582
영창정공,37.0524667,126.9742
영창정공,37.0527833,126.9743333
토진1리,37.0394667,126.9535667
토진1리,37.0396667,126.9531333
한산2리.수부마을,37.0514167,126.9701167
한산2리.수부마을,37.0508333,126.97045
청룡사입구,37.0724,127.0353167
율북1리,37.0592,126.9830667
율북1리,37.0591833,126.9831833
두릉1리,37.0641833,127.0237333
당현2리.율곡마을입구,37.0731167,127.0371833
율북4리,37.0665,126.9827667
율부5리,37.06875,126.9776333
율부5리,37.0686333,126.9776333
평택시립추모공원,37.0711167,126.9688333
평택시립추모공원,37.0709667,126.9688833
한산3리,37.0661667,126.9627333
한산3리,37.0661333,126.9628667
어소2리,37.0613667,126.9546
어소2리,37.0613,126.9547333
어소1리마을회관,37.0578667,126.95235
어소1리마을회관,37.05775,126.9524333
현곡4리,37.0521167,126.9478333
현곡4리,37.052,126.94805
현곡3리,37.04835,126.9415833
현곡3리,37.0482333,126.9417333
해창,37.0451,127.0099833
고덕,37.0439167,127.0134167
지엔하임2단지,36.9751167,126.9286333
지엔하임1단지,36.9783667,126.9306
당현리,37.0652333,127.0324333
당현리,37.0651167,127.0324
두릉3리,37.0628667,127.0271167
두릉3리,37.0627667,127.02705
두릉1리,37.0641333,127.0234333
삼덕초등학교,37.0394167,126.9114667
태승엔지니어링앞,37.06445,127.0209667
태승엔지니어링앞,37.0645,127.02105
문곡1리,37.0680333,127.0158667
문곡1리,37.0679833,127.0159167
한국관광고등학교앞,37.0716167,127.0212333
한국관광고등학교앞,37.0714167,127.02115
장등2리,37.07285,127.0219667
장등리,37.0737833,127.0253667
케이씨타운입구,37.0741833,127.0268667
당현3리,37.0757,127.0335333
당현3리,37.07565,127.0336167
문곡2리,37.0632,127.0107667
문곡2리,37.0631167,127.0108
문곡3리,37.0593333,127.0086333
문곡3리,37.0592,127.0087167
문곡4리,37.0573333,127.0085167
문곡4리,37.0572833,127.0085833
동령마을입구,37.0613833,127.0709667
동령마을입구,37.0614,127.0712667
정암마을2단지,37.0595167,127.0666333
정암마을2단지,37.0592167,127.0664333
이충고등학교.반지마을3단지,37.0576333,127.0655
이충고등학교.반지마을3단지,37.0572167,127.0656833
지엔하임2단지,36.9750167,126.9287667
남부농협,37.0659167,127.0594
교보생명,37.0683,127.05885
교보생명,37.0678667,127.0590333
현충탑입구,37.0655333,127.0612333
현충탑입구,37.0657667,127.06125
송탄등기소,37.06545,127.06285
송탄등기소,37.0655667,127.063
효성2단지후문입구,36.98905,127.1297667
고덕자연앤자이,37.0517,127.0462333
동막마을,37.0754833,127.0919333
우곡마을,37.0783833,127.0799833
한경국립대학교,37.0518833,127.0956167
스위첸아파트,37.0812667,127.0695667
송북초교,37.0807,127.0648167
삼익아파트,37.0820833,127.0615833
K-55후문고개,37.07685,127.0382167
청룡사입구,37.0722833,127.0356667
라이프아파트앞,37.0824167,127.0600333
지엔하임1단지,36.9784667,126.9308333
송탄역,37.07475,127.0535667
송탄역,37.0741667,127.05375
우성아파트,37.07325,127.0644833
한양청솔아파트,37.0749833,127.0637333
한양청솔아파트,37.0750667,127.0638333
건영아파트,37.0766333,127.0633167
건영아파트,37.07635,127.0634333
지산현대아파트,37.0779333,127.0626833
지산현대아파트,37.0777667,127.0629167
태광중고등학교입구,37.0724833,127.0533833
태광중고등학교입구,37.0725667,127.0533667
신장2동파출소.복창초등학교,37.0722667,127.0512333
신장2동파출소.복창초등학교,37.0723833,127.05115
송서성당,37.0730167,127.0492667
송서성당,37.0731,127.0492333
신세계목욕탕,37.0742333,127.0470833
신세계목욕탕,37.0743,127.0469667
명성상회,37.0746167,127.0456333
명성상회,37.0746833,127.0456167
공군독신자아파트,37.0745,127.03995
K-55후문고개,37.0770833,127.0382333
공군독신자아파트,37.0747167,127.0400333
이충중학교,37.0601667,127.06875
송탄공단입구,37.03695,127.0721667
서울축협,37.0322333,127.0722667
세원정공,37.0323333,127.0764833
신흥목재사거리,37.03395,127.0772667
우체국사거리,37.0373333,127.0778333
우체국사거리,37.03705,127.0769833
JW신약,37.0373667,127.0810667
JW신약,37.0370833,127.0795833
광동제약,37.0364667,127.0824833
동천보건진료소,37.13435,127.1081333
하늘목장,37.1245167,127.0981833
하늘목장,37.1245667,127.0985667
원익IPS,37.1253833,127.0833333
동양이엔피,37.1253333,127.0835333
협동화산업공단,37.1183667,127.0828
가곡2리,37.1144167,127.0878167
가곡1리,37.1132667,127.08275
가곡1리,37.11335,127.0830833
갈곶초등학교,37.1255667,127.07105
갈곶초등학교,37.1251667,127.0731
갈곶초등학교,37.1247167,127.0722833
갈곶초등학교,37.1256,127.0711667
가곡5리,37.11645,127.0724
가곡5리,37.11645,127.0724667
가곡4리,37.1181,127.07415
갈곶1리,37.1217333,127.07415
동양잉크,37.11925,127.07445
동양잉크,37.1193,127.07445
한승아파트,37.1073667,127.0805
한승아파트,37.1075833,127.0806167
견산2리.하북유치원,37.1069167,127.07615
견산2리.하북유치원,37.107,127.0761833
한국야쿠르트,37.1044833,127.0827167
한국야쿠르트,37.1051833,127.0817
영신화학,37.1022333,127.0855
영신화학,37.1023,127.0855333
진위초등학교,37.1002167,127.0887
진위초등학교,37.1002833,127.08875
마산4리입구,37.0893,127.0941
송탄정수장,37.09545,127.08685
진위향교앞,37.09815,127.0951667
진위향교앞,37.0980667,127.0952333
무봉산참나무집,37.1013833,127.1009667
무봉산참나무집,37.10135,127.1010667
울성길,37.01355,127.06185
제일하이빌2차.장당우미이노스빌1차,37.0496,127.0612667
당현4리,37.0714833,127.03215
마산4리다목적회관,37.0861167,127.0973
동안마을,37.0798,127.0770167
제일장례식장,37.0899167,127.0675
동안마을,37.07995,127.0770833
신리연립,37.0968833,127.0708667
신리연립,37.0971333,127.0708667
소방서삼거리,37.0898833,127.06385
삼익2차아파트,37.0848,127.0632333
송옥찜질방.서울요양병원,37.0901833,127.0719333
송옥찜질방.서울요양병원,37.0902333,127.0718
마산4리입구,37.0892667,127.0942
동안마을사거리,37.0803333,127.07555
신리입구,37.09715,127.0773
마산1리,37.0874333,127.086
티에이치모터스,37.1237333,127.0802833
티에이치모터스,37.1236,127.0805667
하츠,37.12005,127.08045
무봉산청소년수련원입구,37.1039333,127.1081167
무봉산청소년수련원입구,37.1040667,127.10815
동천리입구.어린이농원,37.10475,127.1104667
동천리입구.어린이농원,37.1046667,127.1102
동천1리.달동네입구,37.1137833,127.1072833
두릉1리입구,37.0694667,127.0288
두릉1리,37.0642667,127.0238167
동천1리,37.1145,127.1055167
동천1리종점,37.11225,127.1066667
고덕자연앤자이,37.0519833,127.04605
서탄면입구,37.10345,127.0631
금암1리,37.1042667,127.04195
서탄119안전센터,37.1063333,127.0371667
수월암1리마을회관,37.1226,127.0457667
수월암2리,37.1200167,127.0297333
마두1리,37.1094,127.0183167
나비뜰,37.1083333,127.02295
나비뜰,37.1082833,127.0226
미도아파트,37.0849,127.04935
삼계3리,37.0417833,126.91495
삼계3리,37.0416667,126.915
청북읍사무소,37.04035,126.9343
평택요양원,37.0399167,126.94865
평택요양원,37.0398167,126.9484667
한산1리,37.0465333,126.96815
송탄정수장,37.0953833,127.0867833
신리입구,37.0971,127.0775333
마산2리입구,37.0921833,127.09
하북삼거리,37.1094833,127.06435
칠괴동우림아파트,37.0259,127.08355
제일아파트(마을),37.0795167,127.06045
k-55후문사거리,37.0750833,127.0431833
구)노인정,37.11805,127.07545
구)노인정,37.11815,127.0754333
근린공원,36.9961833,127.13665
근린공원,36.99625,127.1366333
푸르지오1.2차정문,36.99815,127.14255
푸르지오1.2차정문,36.9983667,127.1426167
성은동산,37.1263667,127.10905
성은동산,37.1264,127.10915
은혜중고등학교,37.06695,127.0780333
희곡1리,36.9669167,126.86145
평택대학교,36.9928167,127.1331667
평택대학교후문,36.99485,127.1353833
평택대학교후문,36.9948333,127.13515
반룡한의원,36.9965833,126.9382333
반룡한의원,36.9967167,126.93825
한양수자인,37.0240667,126.9206333
한양수자인,37.02395,126.9207
어연한산공단입구,37.0507,126.9754167
어연한산공단입구,37.0507667,126.9757167
소사벌중심상가.CGV평택소사점,37.0009333,127.1119833
서정리매표소,37.0578,127.0590667
신포입구.가마골,37.0468,126.9318333
오뚜기라면,37.0200333,126.94375
청북읍사무소.신포,37.04135,126.9333167
청북읍사무소.신포,37.0413333,126.9332
신포입구.가마골,37.0466333,126.9317667
덕지사입구,37.0538,126.9306
덕지사입구,37.0536833,126.9303833
고렴1리,37.05845,126.92425
고렴1리,37.0584667,126.9238167
느런휴게소,37.0633,126.91845
느런휴게소,37.0628667,126.9186333
은혜중고.국제대학,37.0667833,127.0786833
송탄버스터미널,37.0794833,127.05745
한전서평택지사,37.0191667,126.9161
후사2리앞,37.0360167,126.93685
LG전자,37.1272167,127.0910333
한전서평택지사,37.0193667,126.91605
안중버스터미널(시외),36.97775,126.9235
안중버스터미널(시외),36.9778333,126.9237
송탄버스터미널,37.0794,127.05745
평택시외버스터미널(시외),36.9901667,127.0878
평택시외버스터미널(시외),36.9902167,127.0877667
고덕동행정복지센터,37.0421833,127.05085
힐스테이트,36.9764167,126.9296
힐스테이트,36.9765,126.9294667
가내초등학교,37.00595,127.1155833
평택지제역,37.0186167,127.0708833
지제역차고지,37.0239667,127.0712667
반도유보라.가내초등학교,37.00735,127.1135667
반도유보라.가내초등학교,37.0075833,127.1138
힐스테이트지제역,37.0214333,127.0812667
용죽푸르지오,36.9963667,127.12145
비전아이파크,36.9991,127.124
비전아이파크,36.9976167,127.1243667
용죽푸르지오,36.9965333,127.12145
비전엘크루.굿모닝병원,36.9892167,127.1193167
노랑바위,36.9184667,126.9176167
유천1동,36.97675,127.12105
유천1동,36.9768333,127.1211667
원정리,36.9780833,127.0439333
칠괴교차로,37.0244333,127.0817
칠괴교차로,37.02415,127.0833
비전푸르지오(중),36.9940333,127.1202
비전푸르지오(중),36.99335,127.1203333
비전센트럴푸르지오,36.9941833,127.1244333
양교3리입구,37.0176167,126.9840833
양교3리입구,37.01775,126.9841
덕목4리,36.9505,126.9587167
덕목4리,36.9504167,126.9587333
신대1리,36.9464667,127.0022
율포초등학교,37.0403167,127.0448
고덕우체국,37.0385833,127.0435667
아주약품앞,37.0374833,127.0849833
아주약품앞,37.0376833,127.0848833
제3부두,36.9777167,126.8335333
제3부두,36.9775833,126.8333167
MS로지스틱,36.9439833,126.8656
MS로지스틱,36.9442,126.86575
유성티엔에스,36.9424,126.8686667
유성티엔에스,36.9425833,126.8688167
칼트로직스,36.9411,126.8712
칼트로직스,36.9413,126.87135
우련통운.평택물류,36.9398833,126.8735167
우련통운.평택물류,36.9400833,126.8736833
KJ로지텍,36.9383167,126.8765667
KJ로지텍,36.9385,126.8767
서부두제1정문,36.948,126.8295167
원옥길,37.0224,126.9084
원옥길,37.0225667,126.9085667
브라운스톤아파트,37.02145,126.9070333
브라운스톤아파트,37.0216,126.9068667
유승한내들후문,37.0189833,126.9078167
유승한내들후문,37.0189667,126.9076833
이곡마을6단지아파트(중),37.0090333,127.1064167
소사벌푸르지오아파트,37.0089,127.1013833
소사벌푸르지오아파트,37.00875,127.1014667
뜨레휴이곡마을7단지아파트,37.0099667,127.1038833
뜨레휴이곡마을7단지아파트,37.0100833,127.1037833
뜨레휴이곡마을7단지아파트후문(중),37.0096167,127.1055667
서재자이아파트,37.0115167,127.1006833
서재자이아파트,37.0117667,127.1005167
용이e편한세상1차아파트,37.00325,127.14345
용이e편한세상1차아파트,37.0032167,127.1440167
용이e편한세상2차아파트후문,37.0026,127.14705
장당제일풍경채.PMC박병원,37.04795,127.0582167
장당제일풍경채.PMC박병원,37.0478167,127.0580333
평택센트럴자이2단지,37.0165333,127.1033333
평택센트럴자이2단지,37.0164333,127.1035
더샵지제역센트럴파크2단지(중),37.0198167,127.0935333
더샵지제역센트럴파크1단지(중),37.0196667,127.0912833
더샵지제역센트럴파크1단지(중),37.0197333,127.0915
더샵지제역센트럴파크2단지(중),37.0193167,127.0939667
세림산업단지,37.0181167,126.9728167
세림산업단지,37.0178,126.9726333
반도유보라1단지,37.0085333,127.1145167
반도유보라1단지,37.0086833,127.11455
종덕초등학교,37.0533,127.0471833
용죽근린공원,36.9963833,127.1251
용죽지구,36.9935667,127.12545
용죽지구,36.9934667,127.1251667
진우아파트,37.0009167,127.0962667
죽백동입구,37.0027333,127.1293167
용이e편한세상2차아파트후문,37.0026,127.1464833
힐스테이트평택2차,37.0085833,127.0876167
힐스테이트평택2차,37.0086833,127.0875
힐스테이트평택3차,37.0102833,127.08915
힐스테이트평택3차,37.0103833,127.0892667
평택지제역,37.0189333,127.0725
고잔마트,37.0640167,126.90665
진사리입구.푸르지오2차후문,36.99515,127.1412167
우림청설아파트,36.9941833,127.1382333
스타필드.용이푸르지오2차앞,36.9968833,127.14385
엘엠에스,37.1226333,127.0804667
미래보,37.1220833,127.0829667
하츠,37.1199,127.0802667
지산어린이집,37.0748167,127.0588167
지산동주민센터,37.0774167,127.05795
지산동주민센터,37.0774,127.05775
지산어린이집,37.0747333,127.0586167
LGCNS,37.1259,127.0801833
서탄사리마을회관,37.1157833,127.0491
경동나비엔,37.1234167,127.04135
서탄사리마을회관,37.1157167,127.0490667
더샵1단지정문,37.0216167,127.0877167
신1리.삼궁원,37.0131667,127.0006333
교포리입구,37.0125,126.9982333
명성빌라,37.0079667,126.9841667
오성면사무소앞,37.0075167,126.9811667
죽2리,37.0077833,126.9723167
길음사거리,37.0059333,126.9659167
죽3리,37.00485,126.96215
백병원,37.0024333,126.9592667
관두머리,36.9994667,126.95655
우림아파트,36.9959,126.9515167
정토사,36.9935167,126.9465333
경성주택,36.9908333,126.9405
안중5리.황금마을,36.98985,126.9358833
안중오거리,36.9901833,126.9305167
안중출장소,36.9885,126.9203167
현화리,36.98915,126.9166
학현2리,36.9908667,126.9118
성해2리.은성,36.9911667,126.9066667
성해1리,36.9901167,126.9045667
운정리,36.98725,126.8999
석정아파트,36.98715,126.8970833
이평,36.9868,126.8927
경도일식,36.9854,126.8877333
포승읍사무소,36.9841,126.8842833
내기삼거리,36.9828833,126.8822
내기초교앞,36.9782833,126.8761833
노와2리입구,36.9485333,127.0848833
내기4리,36.9706833,126.8696667
희곡마을,36.9681167,126.86235
만호1리,36.9642167,126.8588667
유천1리,36.9767333,127.1154833
힐스테이트지제역퍼스티움,37.0165167,127.08335
파라곤에듀포레.제일풍경채2차에듀(중),37.0400833,127.0249833
희곡1리,36.9658,126.8605167
희곡마을,36.9685833,126.8626167
내기4리,36.9710833,126.87
일자촌입구,36.9730667,126.8726167
내기초교,36.9782,126.87575
석정2리.내기삼거리,36.9830167,126.882
포승농협,36.9845833,126.8847167
석정3리,36.9864667,126.8907333
석정아파트,36.98725,126.8981167
성해1리,36.9894,126.9032
성해2리.은성,36.9913667,126.9068167
학현2리,36.9912833,126.9111667
안중홈플러스,36.9899167,126.9151
안중출장소,36.9887,126.9198167
안중5리.황금마을,36.9898167,126.9347833
경성주택,36.99095,126.93985
정토사,36.9942333,126.9472
금곡4리.숲마을,36.9951167,126.9486167
금곡4리.이편한요양병원,36.9959667,126.9509333
금곡2리,36.9987333,126.9556167
백병원,37.0019333,126.9584667
죽3리,37.0050667,126.962
길음사거리,37.0061833,126.9658
죽2리,37.008,126.9731
경기도종자관리소,37.0072333,126.9770167
오성면사무소,37.0076333,126.98135
명성빌라,37.0083167,126.9847167
안화리,37.01275,126.9984833
신1리.삼궁원,37.0135167,127.00115
창내입구,37.0143,127.0039
농협연합장례식장앞,37.0160667,127.0098833
궁안교,37.0176667,127.0207833
태평아파트,37.01565,127.0332
동고1리.방축4리,37.0124333,127.0402167
동고2리.윗마을,37.0075833,127.0461167
동고2리,37.0053333,127.0487333
울성리,37.0116,127.06075
울성리낚시터,37.01615,127.0604833
용이초교,37.0006333,127.1481333
용이초교,37.0008333,127.14785
울성길,37.0135167,127.0617667
고덕중앙교회,37.0415667,127.0158833
고덕면사무소,37.0418833,127.01785
청룡동,37.0665333,127.0184833
동청2리,37.0492667,127.0052
동청1리,37.0534,127.0052
어연1리,37.0502833,126.9808667
어연초교,37.0499833,126.9784333
어연한산공단,37.0500667,126.9757333
어연,37.0477333,126.9721
한산1리,37.0463333,126.9681333
토진2리,37.0420667,126.95845
청북읍사무소,37.0402167,126.9344
삼계2리.옹포,37.0417167,126.91855
삼덕초등학교,37.0392667,126.9116333
신영낚시슈퍼,37.0393833,126.9088833
삼계1리.성골,37.0437167,126.9022333
삼계1리,37.0412333,126.9135667
삼계2리.능안,37.04235,126.9229333
청북읍사무소.신포,37.04045,126.93265
청북중학교,37.0398167,126.9477167
문곡3리입구,37.0553833,127.0078833
두릉리.계루지,37.05675,127.0146833
민세안재홍선생생가,37.0577667,127.0179167
서부노인복지관.안중체육관,36.98975,126.9231833
배꽃마을,37.0024833,127.1137667
배꽃마을4단지,37.00255,127.10345
송일초등학교.미송아파트,37.064,127.0581667
송탄터미널,37.0805,127.0577667
송탄시장,37.0816667,127.0577833
송탄시장,37.08175,127.05795
송탄터미널,37.08015,127.0579833
송일초등학교.미송아파트,37.0635333,127.0583833
서정동롯데캐슬아파트,37.0599167,127.0590167
서정리고속버스정류장,37.0579833,127.0592833
배꽃마을4단지,37.0025333,127.1026333
서정리초교,37.0569333,127.0572667
서정빌딩사거리,37.0567,127.0604
반지마을3단지,37.0566167,127.0665833
코오롱하늘채아파트북문,37.06075,127.07855
반지마을3단지,37.0564333,127.0667167
서정빌딩사거리,37.05655,127.0600333
서정리초교,37.0567167,127.0577
서정리역,37.0569833,127.0545167
진위3산업단지입구,37.0872333,127.0979167
갈평입구,37.0590667,127.05355
대추골,37.06195,127.0537333
점촌,37.0649,127.05405
서정지하차도,37.0659833,127.0541833
서정동주민센터,37.0677333,127.0543833
복창육교,37.0728167,127.0549333
송탄클래시아,37.0761667,127.05515
신장육교,37.0782667,127.0550833
송탄시장,37.08075,127.05535
송탄우체국,37.0830167,127.0569833
영동빌라,37.0855833,127.05875
오좌동,37.0875333,127.06165
오좌동,37.0874333,127.0618
영동빌라,37.0849167,127.0585333
송탄우체국,37.0824833,127.05685
송탄시장,37.0814167,127.0560667
신장육교,37.0784,127.0552
송탄클래시아,37.0765667,127.0554167
복창육교,37.07285,127.0551
서정동주민센터,37.06835,127.0546333
점촌,37.065,127.0542667
대추골,37.0625667,127.0539833
갈평입구,37.0604333,127.0537833
송탄출장소,37.06725,127.06385
라온중고등학교,37.0695833,127.0641333
지산건영아파트,37.0755667,127.0649333
지산현대아파트.서울제일병원,37.0784333,127.0632833
쌍용.삼익1차아파트,37.08145,127.0621333
지산아주아파트,37.0834667,127.0619167
진위면신리,37.0972667,127.0638167
서탄입구,37.1039667,127.0635833
진위역,37.10975,127.0632667
하북4리,37.1132833,127.0630833
진위면롯데제과,37.11745,127.0643333
야막리,37.1226833,127.0654167
야막리,37.1222333,127.0656167
진위면롯데제과,37.1176833,127.0646333
하북4리.사리고가,37.1139167,127.0635833
덕동초등학교,36.9966333,127.1072833
비전지구대,36.99635,127.1032
은행아파트,36.9990333,127.1005833
비전롯데캐슬아파트,36.9997,127.0966167
한성아파트,36.99965,127.0978333
은행아파트,36.9992833,127.1002833
비전지구대,36.9963667,127.1035667
덕동초등학교,36.99675,127.1070167
비전2동현대이화아파트,36.9960167,127.1101
시청서문,36.99205,127.1117667
스마트도시통합센터.소사벌더샵.우미린,37.0016667,127.1225333
비전우체국,36.9944833,127.1143167
뉴코아백화점,36.9940667,127.11265
고덕LH17단지(중),37.0372333,127.0473833
뉴코아백화점,36.9942833,127.1126833
축협앞,36.9947667,127.1144167
한빛아파트,36.9957833,127.1171167
굿모닝병원.벽산아파트,36.9910333,127.1204333
참이슬아파트.동일공고,36.9909,127.1176
시청앞,36.9899167,127.1119167
평택고,36.9901,127.1097167
신한중고등학교,36.9913333,127.1043333
평택여중사거리,36.9923167,127.09965
합정동주공3단지후문앞,36.9928333,127.0971167
성동초교,36.9935167,127.0935833
통복시장로터리,36.9953333,127.0841167
통복시장,36.9957167,127.0831333
우리은행,36.9950167,127.0867
한광고교,36.99355,127.0943167
합정동주공3단지후문,36.9927833,127.0983167
평택여중사거리,36.9920667,127.1017333
신한중고등학교,36.9914833,127.1044667
한전앞,36.9908,127.10765
시청앞,36.9901833,127.11225
문화아파트.동일공고,36.9909667,127.11665
벽산아파트.굿모닝병원,36.9912167,127.1203167
평택대학교,36.9929833,127.1323333
효성해링턴플레이스1단지.동방학교,36.9916167,127.1251333
동방학교,36.9923167,127.12645
평택대학교,36.99315,127.1330333
태평아파트,37.0162167,127.03425
추팔공단입구,36.96315,127.0698
용이1차푸르지오.신흥마을,37.0,127.1444167
평궁3리,36.9688,127.0941167
평궁1리회관,36.9716667,127.0867333
월곡동입구,37.01845,127.1300667
노와3리앞,36.95865,127.0962667
노와2리,36.95135,127.0949167
평택세무서.푸른도시사업소,37.0036,127.1180667
세교동행정복지센터,36.9994,127.0828
팽성초등학교,36.9516833,127.0527333
대사리입구,36.94475,127.0529333
본정삼거리,36.9497167,127.0145667
두정1리,36.9417,127.0403833
계양입구,36.94045,127.04735
송화주공아파트,36.9619167,127.05875
현대서해안주유소,36.9458833,126.9129667
도두1리,36.9565333,127.0075833
송화3리.경주부동산,36.95475,127.0492
효성2단지후문입구,36.98915,127.1279167
드림테크산단입구,37.0551167,126.98315
영신지구,37.0216667,127.0852
장당초교.제일하이빌1차,37.04935,127.0583167
장당초교.제일하이빌1차,37.04945,127.0581333
평택세무서.푸른도시사업소,37.0037333,127.1181833
스마트도시통합센터.소사벌더샵.우미린,37.0022167,127.1229333
우미아파트,37.0506167,127.0596833
이충주택단지,37.0564167,127.0628
반지초등학교.송탄고등학교,37.0567667,127.06945
반지초등학교.송탄고등학교,37.0569833,127.0693667
반지마을1단지,37.0604333,127.0692
이충중학교.반지마을1단지,37.0592833,127.0695
동신산업,36.9577167,127.0756833
새말입구,37.0282667,127.1014167
송탄작은도서관,37.0332833,127.0991167
송탄작은도서관,37.03335,127.0993167
후사1리앞,37.0236,126.9432333
용성2리앞,37.0164833,126.9455333
용성1리,37.0105333,126.9473667
금곡리,37.0010833,126.9439333
현화중학교,36.9824833,126.92085
현일초교,36.9862,126.9208167
동환아파트,36.9863,126.9210833
안중주공2단지,36.9823833,126.92115
늘푸른아파트.현화초교,36.9814333,126.91905
건영아파트,36.9860833,126.9160333
건영아파트,36.9879667,126.9162333
우림아파트,36.9850833,126.9163333
늘푸른아파트.현화초교,36.9815833,126.91835
안중주공아파트,36.9845,126.9243833
안중주공1단지,36.9846667,126.9227
성심중앙병원,36.9844667,126.9266167
대반4리,36.9803167,126.9511667
대반5리,36.9804167,126.9550333
신창아파트,36.98075,126.9373
덕우1리,37.0096833,126.9262333
안중구터미널,36.9887667,126.9314
덕우1리,37.0097,126.9260833
신장쇼핑몰입구,37.0814,127.0542
인광4리,36.9742667,126.9227667
현덕면사무소,36.9672833,126.9202667
현덕우체국,36.9657333,126.9191
인광1리,36.9608333,126.9171667
기산리입구,36.95005,126.9127667
가사초교,36.9383333,126.9164167
권관3리,36.9250833,126.9140667
권관2리입구,36.9199667,126.9119333
권관2리입구,36.9198833,126.9116
가사초교,36.9370333,126.91585
인광1리,36.9608333,126.9170667
현덕우체국,36.9658333,126.9190333
길음2리,36.9854167,126.9696333
숙성2리,37.00195,126.9785333
숙성3리,36.9954667,126.9762167
당거사거리,36.98825,126.9743167
길음1리입구,36.9911,126.96865
길음1리,36.99355,126.9653333
신장쇼핑몰입구,37.0812,127.0543
에버그린,37.0699667,127.0173833
창내4리,37.0011333,127.0121667
창내3리노인회관,36.99615,127.0125333
창내4리,36.9893833,127.02845
평택과학화예비군훈련장,37.0559167,127.0274333
삼성전자(중),37.03955,127.0508167
창신초교,37.0048333,127.0071667
평택과학화예비군훈련장,37.0566833,127.0276667
수월암2리입구,37.1155,127.0308833
수월암2리마을회관,37.1205333,127.0334833
경기종합가구유통,37.0409833,127.0899667
늘푸른요양원,37.0428833,127.0934
내리,37.05245,127.11105
내리,37.0535,127.1121667
상리,37.05605,127.1158167
고덕LH17단지정문,37.0370833,127.0448333
광동제약사거리,37.03595,127.08345
방혜동입구,37.0457,127.0869167
송탄초교,37.0423333,127.08825
소곡노인정,37.0409333,127.0882333
소곡노인정,37.0407167,127.0880667
송탄초교,37.0423667,127.0881
방혜동입구,37.0454833,127.087
수월암리공단,37.1191667,127.0246
송탄공업사,37.0523,127.0791833
송탄공업사,37.0525167,127.0789167
죽백동,37.01365,127.1341167
죽백동,37.01325,127.1345
청룡동,37.02185,127.12555
용이1차푸르지오.신흥마을,36.9999,127.1441
동고2리,37.00475,127.0494167
동고2리.윗마을,37.0059667,127.0475167
동고1리.방축4리,37.0121,127.04035
태평아파트,37.0153167,127.03395
궁2.3리입구,37.0158833,127.0307167
궁안교,37.0174167,127.02125
농협연합장례식장앞,37.0156833,127.0092667
방축리.국제병원,37.0156333,127.04915
용죽초등학교,36.99545,127.1231
팽성대교,36.9754833,127.03705
팽성대교,36.97525,127.037
고덕LH12단지,37.0363333,127.0280333
제일풍경채3차센텀.호반써밋에듀,37.03835,127.03045
가내초등학교,37.00585,127.1154
도곡리,36.9862333,126.8612333
월곡저수지,37.0209667,127.12965
원정사거리,36.9966167,126.8401
한일마을,36.9965,126.84045
원정초교,36.9934333,126.8443
월곡저수지,37.0208667,127.1294667
원정초교,36.9936167,126.8444167
도곡삼거리,36.99445,126.8501
신촌마을.원정2리,36.9970333,126.84435
쌍용마을입구,37.00045,126.8391833
원정5리,37.0031333,126.83015
원정6리7리입구,37.0061667,126.8235833
SK가스,37.00665,126.8051833
월곡2동,37.02745,127.1389667
원정6리7리입구,37.0063333,126.82365
원정6리,37.0039667,126.8302
쌍용마을입구,37.00075,126.8397333
신촌마을.원정2리,36.9973333,126.8443667
자오,37.0180833,126.86995
홍원3리,37.0167667,126.8679
고잔1리,37.0596,126.90285
고잔6리,37.0417833,126.8921333
월곡2동,37.0274667,127.1389833
해창5리,37.0209667,127.0213833
평택오썸플렉스,37.0281167,127.0189333
고덕면사무소,37.0417,127.0179333
월곡동,37.0246,127.1409667
고덕면사무소,37.0422333,127.0186333
죽1리,37.0124833,126.9695333
양교3리,37.0200667,126.9748167
월곡동,37.0247167,127.1409
양교6리,37.0224667,126.9584167
죽4리,37.00945,126.9673167
인광육교,36.96305,126.9244667
신왕1리,36.9368167,126.9662167
배다리마을5단지,37.00515,127.1225333
인광육교,36.9629,126.9245167
반도아파트,36.9796667,126.8806
방림3리,36.9689,126.8857
배다리마을5단지,37.005,127.1223667
신영2리,36.9394167,126.8890833
신영2리,36.9423,126.8895667
신영1리,36.9497667,126.8802833
BIX경기행복주택,36.94925,126.8703833
평택홍보관,36.96895,126.8474667
효성해링턴코트,37.00795,127.119
효성해링턴코트,37.0078167,127.1195833
신촌,37.0254,127.1114833
비전아이파크.비전센터포레,36.99825,127.1263
동문굿모닝힐맘시티2단지입구,37.0257,127.1065
동명스틸,36.9754667,126.85095
현대모비스사거리,36.9797,126.848
도곡5리,36.9845833,126.8745167
도곡5리.무수마을,36.9850667,126.8721
도곡4리,36.98775,126.8651333
거산.도곡1리,36.9901,126.8597167
도곡2리,36.99285,126.8543167
도곡2리,36.99285,126.8547833
서평택CC.도곡1리,36.9897667,126.8612333
도곡4리,36.9879333,126.8653
무수마을.김씨갈비,36.9854333,126.8707333
도곡5리,36.9847667,126.8747333
석정5리,37.0025167,126.8800667
성해2리,36.99255,126.9039667
석정6리(용소),37.0018,126.8966333
석정5리,37.00615,126.8924833
홍원1리,37.0081833,126.8927167
홍원초교,37.0117167,126.88775
마장,37.0141167,126.8795833
홍원5리,37.0127,126.8672
석정6리,37.0041,126.8970167
포승중앙교회입구,36.9939667,126.9008333
옥길2리,37.0319333,126.91525
부영2차정문,37.0185333,126.9123667
옥길3리,37.0281,126.9122
동문굿모닝힐맘시티1단지,37.0257333,127.1019167
동문굿모닝힐맘시티1단지후문,37.0277667,127.1033167
토진교회앞,37.03225,126.9631667
양교1리,37.0252667,126.9762333
고덕하늘채시그니처후문,37.0197167,127.0325833
토진3리.가재울,37.0336,126.96065
토진1리,37.03515,126.9586333
고덕하늘채시그니처,37.0196167,127.0342667
삼성전자평택캠퍼스,37.0343167,127.05335
호반써밋에듀파크(중),37.0365833,127.0288667
함박산,37.0386167,127.03465
고덕초등학교,37.041,127.0297167
고덕우체국,37.0385167,127.0438667
금곡리,37.0009667,126.9436333
용성1리,37.0103833,126.9472
용성2리.용성3리입구,37.0155167,126.9456
고덕자연앤자이,37.05025,127.0439167
후사2리,37.0363167,126.9365167
신동아파밀리에,37.04865,127.0434333
율포초등학교,37.0412833,127.0452833
두1리,36.9791833,127.0650333
청북공설운동장,37.0286,126.94185
동우빌딩앞사거리(경유),36.98315,126.9291
덕우교차로(경유),37.0083833,126.9195333
코오롱하늘채(경유),37.0614333,127.08125
송탄교차로(경유),37.02115,127.0714833
평택고덕IC(경유),37.02585,127.0323667
오성IC(경유),37.01485,126.9862833
오성IC(경유),37.01465,126.9865667
팽성교차로(경유),36.9542833,126.9892333
팽성교차로(경유),36.9542833,126.9895333
북평택TG(경유),37.0665667,126.9919333
북평택TG(경유),37.0664333,126.9931167
창내삼거리(경유),36.9823167,127.0290667
내탑사거리(경유),36.9875167,126.9698
이충레포츠공원(경유),37.06485,127.0697167
서정공원(경유),37.0618667,127.0648833
현화교차로(경유),36.9892833,126.9161833
내기삼거리(경유),36.98265,126.88135
운정리(경유),36.98745,126.8999333
궁리사거리(경유),37.0175667,127.02215
오성IC(경유),37.0114833,126.9941333
길음사거리(경유),37.0059333,126.9651167
안중사거리(경유),36.9906667,126.9385833
용이동차고지(경유),37.0035667,127.1391333
평택고덕IC(경유),37.0260167,127.0329833
아산만종점(경유),36.9168333,126.9069333
창내4리(경유),36.9894167,127.0253333
평택직할세관(경유),36.96,126.8512167
내리길(경유),36.9737,127.03155
비전지하차도사거리(경유),36.9877333,127.1156167
서부두입구삼거리(경유),36.9404667,126.8845
신리삼거리(경유),37.09745,127.0641333
기산리(경유),36.93025,126.9278667
대사1리(경유),36.9451667,127.0585167
홍원1지구(경유),37.0131333,126.8602667
길음사거리(경유),37.0057167,126.9651833
평택항(경유),36.9627667,126.8440833
평택JC(경유),37.0314,126.9719
덕목리(경유),36.94305,126.9664833
장당사거리(경유),37.0461,127.0602667
장당고가교(경유),37.0443,127.0571833
덕우리(경유),37.007,126.92665
학현리(경유),37.0044167,126.9286167
신평동주민센터(경유),36.9890833,127.0941667
권관리(경유),36.9167167,126.9139333
고덕중앙1로진입로(경유),37.0537167,127.0248333
서정공원(경유),37.062,127.0651667
은실고가삼거리(경유),37.0056167,127.0724167
평택JC(경유),37.03165,126.9711333
송탄교차로(경유),37.0240333,127.0716667
신대삼거리(경유),37.0030167,127.05885
안중사거리(경유),36.9903667,126.9386333
송탄공단삼거리(경유),37.0368333,127.07015
신대삼거리(경유),37.0032333,127.0590667
서평택TG(경유),36.99375,126.8641833
서평택TG(경유),36.99365,126.8647667
청북IC(경유),37.0485833,126.9191
청북IC(경유),37.0488667,126.9201333
청북TG(경유),37.0515167,126.9252167
청북TG(경유),37.0511,126.9252667
서평택IC(경유),36.9982,126.8689
서평택IC(경유),36.9979167,126.86935
신영리(경유),36.9337167,126.87045
군문동(경유),36.98415,127.0901
평택TG(경유),37.0322667,126.9773167
평택TG(경유),37.0326667,126.9780333
비전지하차도사거리(경유),36.9878333,127.1163667
평택터미널(경유),36.9820167,127.0947667
